[
  {
    "id": 0,
    "nome": "Mappa I — Il pozzo al centro della città",
    "descr": "Esiste a Pesaro un pozzo al centro di un arco. E' un antico pozzo che custodisce un segreto sommerso. Riuscirai a trovarlo?",
    "lat": 43.907596,
    "lon": 12.911242,
    "immagine": "https://raw.githubusercontent.com/lorenzo-poderi/mappe-tesoro/refs/heads/main/mappa-esedra.jpg",
    "soluzione": "TUOI",
    "visibile": true,
    "searching": false,
    "tesoroTrovato": false,
    "suggerimentiAttivi": false
  },
  {
    "id": 1,
    "nome": "Mappa II — Guarda chi si vede",
    "descr": "Questo è un luogo magico, dove le storie degli altri si intrecciano con le tue",
    "lat": 43.908765,
    "lon": 12.910469,
    "immagine": "https://raw.githubusercontent.com/lorenzo-poderi/mappe-tesoro/refs/heads/main/mappa-foglie.jpg",
    "soluzione": "SMILE",
    "visibile": true,
    "searching": false,
    "tesoroTrovato": false,
    "suggerimentiAttivi": false
  },
  {
    "id": 2,
    "nome": "Mappa III — Su per i muri",
    "descr": "Davanti a questo negozio loro sono i padroni della strada",
    "lat": 43.9083238,
    "lon": 12.9118357,
    "immagine": "https://raw.githubusercontent.com/lorenzo-poderi/mappe-tesoro/refs/heads/main/mappa-gatti.jpg",
    "soluzione": "NEI",
    "visibile": true,
    "searching": false,
    "tesoroTrovato": false,
    "suggerimentiAttivi": false
  },
  {
    "id": 3,
    "nome": "Mappa IV — Un libro per l'anima",
    "descr": "In questo luogo puoi chiudere gli occhi e immaginarti davanti ad una magnifica orchestra",
    "lat": 43.909219,
    "lon": 12.910466,
    "immagine": "https://raw.githubusercontent.com/lorenzo-poderi/mappe-tesoro/refs/heads/main/mappa-rossini.jpg",
    "soluzione": "VEDO",
    "visibile": true,
    "searching": false,
    "tesoroTrovato": false,
    "suggerimentiAttivi": false
  },
  {
    "id": 4,
    "nome": "Mappa V — Mai più",
    "descr": "Questo è un luogo di passaggio, dove le persone vanno e vengono. Ma se guardi in basso, potrai leggere storie tristi del passato",
    "lat": 43.910118,
    "lon": 12.913039,
    "immagine": "https://raw.githubusercontent.com/lorenzo-poderi/mappe-tesoro/refs/heads/main/mappa-giornali.jpg",
    "soluzione": "SARA'",
    "visibile": true,
    "searching": false,
    "tesoroTrovato": false,
    "suggerimentiAttivi": false
  }, {
    "id": 5,
    "nome": "Mappa VI — Gli amanti",
    "descr": "Questo posto è dedicato a chi si ama. Un abbraccio vale più di mille parole",
    "lat": 43.911043,
    "lon": 12.913277,
    "immagine": "https://raw.githubusercontent.com/lorenzo-poderi/mappe-tesoro/refs/heads/main/mappa-amanti.jpg",
    "soluzione": "DUE",
    "visibile": true,
    "searching": false,
    "tesoroTrovato": false,
    "suggerimentiAttivi": false
  }, {
    "id": 6,
    "nome": "Mappa VII — Il poeta",
    "descr": "Il sommo poeta dialettale, con la fisarmonica in spalla, ci racconta la sua città",
    "lat": 43.908354,
    "lon": 12.914889,
    "immagine": "https://raw.githubusercontent.com/lorenzo-poderi/mappe-tesoro/refs/heads/main/mappa-pasqualon.jpg",
    "soluzione": "OCCHI",
    "visibile": true,
    "searching": false,
    "tesoroTrovato": false,
    "suggerimentiAttivi": false
  }, {
    "id": 7,
    "nome": "Mappa VIII — Un luogo di difesa",
    "descr": "Questa è una fortezza, un luogo di difesa, ma ai giorni d'oggi anche un posto di battaglie goliardiche",
    "lat": 43.909638,
    "lon": 12.916327,
    "immagine": "https://raw.githubusercontent.com/lorenzo-poderi/mappe-tesoro/refs/heads/main/mappa-rocca.jpg",
    "soluzione": "CHE",
    "visibile": true,
    "searching": false,
    "tesoroTrovato": false,
    "suggerimentiAttivi": false
  }
]
